time,depth,pos_n,pos_e,roll,pitch,heading,speed,altitude,usbl_range,usbl_azimuth,usbl_elevation,dock_n,dock_e,dock_d
0.000000,111.500000,682.290000,674.800000,-0.000000,-0.000000,-0.000000,0.000000,0.000000,0.000000,0.000000,0.000000,100.000000,200.000000,50.000000
1.000000,111.486000,682.290000,674.800000,-1.680000,-1.890000,-0.050000,0.002000,0.000000,0.000000,0.000000,0.000000,100.000000,200.000000,50.000000
2.000000,111.468000,682.290000,674.800000,-0.030000,-6.050000,-0.110000,-0.009000,0.000000,0.000000,0.000000,0.000000,100.000000,200.000000,50.000000
3.000000,111.447000,682.270000,674.800000,-1.580000,-8.740000,-0.330000,-0.032000,0.000000,0.000000,0.000000,0.000000,100.000000,200.000000,50.000000
4.000000,111.422000,682.230000,674.810000,-0.200000,-7.770000,-0.510000,-0.053000,0.000000,0.000000,0.000000,0.000000,100.000000,200.000000,50.000000
5.000000,111.397000,682.180000,674.810000,-1.350000,-4.270000,-0.740000,-0.060000,0.000000,0.000000,0.000000,0.000000,100.000000,200.000000,50.000000
6.000000,111.376000,682.120000,674.820000,-0.470000,-1.540000,-0.920000,-0.056000,0.000000,0.000000,0.000000,0.000000,100.000000,200.000000,50.000000
7.000000,111.358000,682.070000,674.820000,-1.090000,-1.870000,-1.150000,-0.051000,0.000000,0.000000,0.000000,0.000000,100.000000,200.000000,50.000000
8.000000,111.337000,682.020000,674.830000,-0.750000,-4.780000,-1.380000,-0.055000,0.000000,0.000000,0.000000,0.000000,100.000000,200.000000,50.000000
9.000000,111.312000,681.960000,674.840000,-0.790000,-7.490000,-1.660000,-0.067000,0.000000,0.000000,0.000000,0.000000,100.000000,200.000000,50.000000
10.000000,111.284000,681.890000,674.850000,-1.050000,-7.660000,-1.980000,-0.081000,0.000000,0.000000,0.000000,0.000000,100.000000,200.000000,50.000000
11.000000,111.255000,681.810000,674.860000,-0.510000,-5.290000,-2.290000,-0.086000,0.000000,0.000000,0.000000,0.000000,100.000000,200.000000,50.000000
12.000000,111.231000,681.720000,674.870000,-1.290000,-2.660000,-2.620000,-0.080000,0.000000,0.000000,0.000000,0.000000,100.000000,200.000000,50.000000
13.000000,111.211000,681.650000,674.880000,-0.330000,-2.090000,-2.920000,-0.073000,0.000000,0.000000,0.000000,0.000000,100.000000,200.000000,50.000000
14.000000,111.190000,681.580000,674.890000,-1.450000,-4.000000,-3.270000,-0.070000,0.000000,0.000000,0.000000,0.000000,100.000000,200.000000,50.000000
15.000000,111.165000,681.510000,674.910000,-0.210000,-6.520000,-3.610000,-0.077000,0.000000,0.000000,0.000000,0.000000,100.000000,200.000000,50.000000
16.000000,111.136000,681.430000,674.920000,-1.520000,-7.400000,-4.010000,-0.087000,0.000000,0.000000,0.000000,0.000000,100.000000,200.000000,50.000000
17.000000,111.107000,681.350000,674.930000,-0.190000,-5.940000,-4.380000,-0.092000,0.000000,0.000000,0.000000,0.000000,100.000000,200.000000,50.000000
18.000000,111.081000,681.260000,674.950000,-1.470000,-3.570000,-4.800000,-0.088000,0.000000,0.000000,0.000000,0.000000,100.000000,200.000000,50.000000
19.000000,111.059000,681.180000,674.960000,-0.280000,-2.440000,-5.160000,-0.080000,0.000000,0.000000,0.000000,0.000000,100.000000,200.000000,50.000000
20.000000,111.037000,681.100000,674.980000,-1.360000,-3.500000,-5.570000,-0.076000,0.000000,0.000000,0.000000,0.000000,100.000000,200.000000,50.000000
21.000000,111.014000,681.030000,674.990000,-0.430000,-5.700000,-5.960000,-0.079000,0.000000,0.000000,0.000000,0.000000,100.000000,200.000000,50.000000
22.000000,110.986000,680.950000,675.010000,-1.180000,-7.020000,-6.400000,-0.086000,0.000000,0.000000,0.000000,0.000000,100.000000,200.000000,50.000000
23.000000,110.957000,680.860000,675.030000,-0.630000,-6.320000,-6.830000,-0.092000,0.000000,0.000000,0.000000,0.000000,100.000000,200.000000,50.000000
24.000000,110.930000,680.780000,675.050000,-0.960000,-4.310000,-7.270000,-0.090000,0.000000,0.000000,0.000000,0.000000,100.000000,200.000000,50.000000
25.000000,110.906000,680.690000,675.070000,-0.850000,-2.870000,-7.700000,-0.084000,0.000000,0.000000,0.000000,0.000000,100.000000,200.000000,50.000000
26.000000,110.885000,680.610000,675.080000,-0.750000,-3.230000,-8.120000,-0.078000,0.000000,0.000000,0.000000,0.000000,100.000000,200.000000,50.000000
27.000000,110.861000,680.540000,675.100000,-1.040000,-5.030000,-8.560000,-0.079000,0.000000,0.000000,0.000000,0.000000,100.000000,200.000000,50.000000
28.000000,110.835000,680.460000,675.120000,-0.570000,-6.560000,-9.010000,-0.085000,0.000000,0.000000,0.000000,0.000000,100.000000,200.000000,50.000000
29.000000,110.806000,680.380000,675.140000,-1.200000,-6.490000,-9.470000,-0.090000,0.000000,0.000000,0.000000,0.000000,100.000000,200.000000,50.000000
30.000000,110.779000,680.290000,675.170000,-0.430000,-4.930000,-9.920000,-0.091000,0.000000,0.000000,0.000000,0.000000,100.000000,200.000000,50.000000
31.000000,110.754000,680.210000,675.190000,-1.300000,-3.340000,-10.400000,-0.086000,0.000000,0.000000,0.000000,0.000000,100.000000,200.000000,50.000000
32.000000,110.732000,680.130000,675.210000,-0.380000,-3.150000,-10.820000,-0.080000,0.000000,0.000000,0.000000,0.000000,100.000000,200.000000,50.000000
33.000000,110.709000,680.050000,675.230000,-1.330000,-4.480000,-11.300000,-0.079000,0.000000,0.000000,0.000000,0.000000,100.000000,200.000000,50.000000
34.000000,110.683000,679.980000,675.260000,-0.380000,-6.080000,-11.750000,-0.083000,0.000000,0.000000,0.000000,0.000000,100.000000,200.000000,50.000000
35.000000,110.655000,679.900000,675.280000,-1.290000,-6.500000,-12.240000,-0.089000,0.000000,0.000000,0.000000,0.000000,100.000000,200.000000,50.000000
36.000000,110.627000,679.820000,675.310000,-0.450000,-5.410000,-12.690000,-0.091000,0.000000,0.000000,0.000000,0.000000,100.000000,200.000000,50.000000
37.000000,110.602000,679.730000,675.340000,-1.180000,-3.830000,-13.180000,-0.088000,0.000000,0.000000,0.000000,0.000000,100.000000,200.000000,50.000000
38.000000,110.579000,679.650000,675.360000,-0.580000,-3.210000,-13.630000,-0.082000,0.000000,0.000000,0.000000,0.000000,100.000000,200.000000,50.000000
39.000000,110.556000,679.580000,675.390000,-1.050000,-4.070000,-14.110000,-0.079000,0.000000,0.000000,0.000000,0.000000,100.000000,200.000000,50.000000
40.000000,110.531000,679.500000,675.420000,-0.730000,-5.590000,-14.570000,-0.082000,0.000000,0.000000,0.000000,0.000000,100.000000,200.000000,50.000000
41.000000,110.504000,679.430000,675.440000,-0.890000,-6.380000,-15.060000,-0.087000,0.000000,0.000000,0.000000,0.000000,100.000000,200.000000,50.000000
42.000000,110.476000,679.340000,675.470000,-0.880000,-5.750000,-15.540000,-0.090000,0.000000,0.000000,0.000000,0.000000,100.000000,200.000000,50.000000
43.000000,110.450000,679.260000,675.510000,-0.740000,-4.310000,-16.020000,-0.089000,0.000000,0.000000,0.000000,0.000000,100.000000,200.000000,50.000000
44.000000,110.426000,679.180000,675.540000,-1.020000,-3.390000,-16.500000,-0.084000,0.000000,0.000000,0.000000,0.000000,100.000000,200.000000,50.000000
45.000000,110.403000,679.110000,675.570000,-0.620000,-3.790000,-16.960000,-0.080000,0.000000,0.000000,0.000000,0.000000,100.000000,200.000000,50.000000
46.000000,110.379000,679.030000,675.600000,-1.130000,-5.130000,-17.450000,-0.081000,0.000000,0.000000,0.000000,0.000000,100.000000,200.000000,50.000000
47.000000,110.353000,678.960000,675.630000,-0.530000,-6.150000,-17.920000,-0.086000,0.000000,0.000000,0.000000,0.000000,100.000000,200.000000,50.000000
48.000000,110.325000,678.880000,675.660000,-1.190000,-5.960000,-18.420000,-0.090000,0.000000,0.000000,0.000000,0.000000,100.000000,200.000000,50.000000
49.000000,110.298000,678.800000,675.700000,-0.500000,-4.750000,-18.890000,-0.089000,0.000000,0.000000,0.000000,0.000000,100.000000,200.000000,50.000000
50.000000,110.274000,678.720000,675.730000,-1.190000,-3.650000,-19.390000,-0.085000,0.000000,0.000000,0.000000,0.000000,100.000000,200.000000,50.000000
51.000000,110.251000,678.650000,675.770000,-0.520000,-3.640000,-19.850000,-0.081000,0.000000,0.000000,0.000000,0.000000,100.000000,200.000000,50.000000
52.000000,110.227000,678.570000,675.800000,-1.150000,-4.710000,-20.340000,-0.081000,0.000000,0.000000,0.000000,0.000000,100.000000,200.000000,50.000000
53.000000,110.201000,678.500000,675.840000,-0.580000,-5.860000,-20.810000,-0.084000,0.000000,0.000000,0.000000,0.000000,100.000000,200.000000,50.000000
54.000000,110.174000,678.430000,675.870000,-1.070000,-6.050000,-21.310000,-0.088000,0.000000,0.000000,0.000000,0.000000,100.000000,200.000000,50.000000
55.000000,110.147000,678.350000,675.910000,-0.670000,-5.130000,-21.780000,-0.090000,0.000000,0.000000,0.000000,0.000000,100.000000,200.000000,50.000000
56.000000,110.122000,678.270000,675.950000,-0.960000,-3.970000,-22.280000,-0.087000,0.000000,0.000000,0.000000,0.000000,100.000000,200.000000,50.000000
57.000000,110.098000,678.200000,675.990000,-0.790000,-3.610000,-22.750000,-0.083000,0.000000,0.000000,0.000000,0.000000,100.000000,200.000000,50.000000
58.000000,110.075000,678.120000,676.030000,-0.850000,-4.370000,-23.220000,-0.081000,0.000000,0.000000,0.000000,0.000000,100.000000,200.000000,50.000000
59.000000,110.050000,678.050000,676.070000,-0.900000,-5.530000,-23.700000,-0.083000,0.000000,0.000000,0.000000,0.000000,100.000000,200.000000,50.000000
60.000000,110.023000,677.980000,676.110000,-0.740000,-6.030000,-24.180000,-0.087000,0.000000,0.000000,0.000000,0.000000,100.000000,200.000000,50.000000
61.000000,109.995000,677.910000,676.150000,-1.000000,-5.440000,-24.670000,-0.089000,0.000000,0.000000,0.000000,0.000000,100.000000,200.000000,50.000000
62.000000,109.970000,677.830000,676.190000,-0.660000,-4.310000,-25.140000,-0.088000,0.000000,0.000000,0.000000,0.000000,100.000000,200.000000,50.000000
63.000000,109.946000,677.760000,676.230000,-1.070000,-3.680000,-25.630000,-0.084000,0.000000,0.000000,0.000000,0.000000,100.000000,200.000000,50.000000
64.000000,109.922000,677.690000,676.280000,-0.610000,-4.110000,-26.080000,-0.081000,0.000000,0.000000,0.000000,0.000000,100.000000,200.000000,50.000000
65.000000,109.898000,677.620000,676.320000,-1.100000,-5.180000,-26.570000,-0.082000,0.000000,0.000000,0.000000,0.000000,100.000000,200.000000,50.000000
66.000000,109.871000,677.550000,676.360000,-0.590000,-5.920000,-27.040000,-0.086000,0.000000,0.000000,0.000000,0.000000,100.000000,200.000000,50.000000
67.000000,109.844000,677.480000,676.410000,-1.100000,-5.650000,-27.520000,-0.089000,0.000000,0.000000,0.000000,0.000000,100.000000,200.000000,50.000000
68.000000,109.818000,677.400000,676.460000,-0.610000,-4.650000,-27.990000,-0.088000,0.000000,0.000000,0.000000,0.000000,100.000000,200.000000,50.000000
69.000000,109.793000,677.330000,676.500000,-1.060000,-3.840000,-28.470000,-0.085000,0.000000,0.000000,0.000000,0.000000,100.000000,200.000000,50.000000
70.000000,109.770000,677.260000,676.550000,-0.670000,-3.940000,-28.920000,-0.082000,0.000000,0.000000,0.000000,0.000000,100.000000,200.000000,50.000000
71.000000,109.746000,677.200000,676.590000,-1.000000,-4.850000,-29.390000,-0.082000,0.000000,0.000000,0.000000,0.000000,100.000000,200.000000,50.000000
72.000000,109.720000,677.130000,676.640000,-0.740000,-5.730000,-29.860000,-0.085000,0.000000,0.000000,0.000000,0.000000,100.000000,200.000000,50.000000
73.000000,109.693000,677.060000,676.690000,-0.910000,-5.780000,-30.330000,-0.088000,0.000000,0.000000,0.000000,0.000000,100.000000,200.000000,50.000000
74.000000,109.666000,676.990000,676.740000,-0.820000,-4.970000,-30.790000,-0.089000,0.000000,0.000000,0.000000,0.000000,100.000000,200.000000,50.000000
75.000000,109.641000,676.920000,676.790000,-0.830000,-4.050000,-31.260000,-0.086000,0.000000,0.000000,0.000000,0.000000,100.000000,200.000000,50.000000
76.000000,109.617000,676.850000,676.840000,-0.910000,-3.860000,-31.710000,-0.083000,0.000000,0.000000,0.000000,0.000000,100.000000,200.000000,50.000000
77.000000,109.593000,676.790000,676.890000,-0.760000,-4.560000,-32.160000,-0.082000,0.000000,0.000000,0.000000,0.000000,100.000000,200.000000,50.000000
78.000000,109.568000,676.730000,676.940000,-0.970000,-5.490000,-32.620000,-0.084000,0.000000,0.000000,0.000000,0.000000,100.000000,200.000000,50.000000
79.000000,109.542000,676.660000,676.990000,-0.700000,-5.810000,-33.080000,-0.087000,0.000000,0.000000,0.000000,0.000000,100.000000,200.000000,50.000000
80.000000,109.515000,676.590000,677.040000,-1.020000,-5.240000,-33.540000,-0.089000,0.000000,0.000000,0.000000,0.000000,100.000000,200.000000,50.000000
81.000000,109.489000,676.530000,677.100000,-0.670000,-4.310000,-33.990000,-0.087000,0.000000,0.000000,0.000000,0.000000,100.000000,200.000000,50.000000
82.000000,109.465000,676.460000,677.150000,-1.040000,-3.870000,-34.440000,-0.084000,0.000000,0.000000,0.000000,0.000000,100.000000,200.000000,50.000000
83.000000,109.441000,676.400000,677.200000,-0.660000,-4.320000,-34.870000,-0.082000,0.000000,0.000000,0.000000,0.000000,100.000000,200.000000,50.000000
84.000000,109.416000,676.340000,677.250000,-1.030000,-5.220000,-35.320000,-0.083000,0.000000,0.000000,0.000000,0.000000,100.000000,200.000000,50.000000
85.000000,109.390000,676.270000,677.310000,-0.680000,-5.760000,-35.760000,-0.086000,0.000000,0.000000,0.000000,0.000000,100.000000,200.000000,50.000000
86.000000,109.363000,676.210000,677.370000,-0.990000,-5.450000,-36.210000,-0.088000,0.000000,0.000000,0.000000,0.000000,100.000000,200.000000,50.000000
87.000000,109.337000,676.140000,677.420000,-0.730000,-4.580000,-36.650000,-0.088000,0.000000,0.000000,0.000000,0.000000,100.000000,200.000000,50.000000
88.000000,109.313000,676.080000,677.480000,-0.940000,-3.960000,-37.090000,-0.085000,0.000000,0.000000,0.000000,0.000000,100.000000,200.000000,50.000000
89.000000,109.289000,676.020000,677.540000,-0.790000,-4.140000,-37.510000,-0.082000,0.000000,0.000000,0.000000,0.000000,100.000000,200.000000,50.000000
90.000000,109.264000,675.960000,677.590000,-0.880000,-4.950000,-37.940000,-0.083000,0.000000,0.000000,0.000000,0.000000,100.000000,200.000000,50.000000
91.000000,109.239000,675.900000,677.650000,-0.850000,-5.630000,-38.370000,-0.085000,0.000000,0.000000,0.000000,0.000000,100.000000,200.000000,50.000000
92.000000,109.212000,675.840000,677.710000,-0.820000,-5.580000,-38.800000,-0.088000,0.000000,0.000000,0.000000,0.000000,100.000000,200.000000,50.000000
93.000000,109.185000,675.780000,677.770000,-0.900000,-4.850000,-39.220000,-0.088000,0.000000,0.000000,0.000000,0.000000,100.000000,200.000000,50.000000
94.000000,109.160000,675.720000,677.830000,-0.770000,-4.120000,-39.640000,-0.086000,0.000000,0.000000,0.000000,0.000000,100.000000,200.000000,50.000000
95.000000,109.136000,675.660000,677.880000,-0.950000,-4.040000,-40.060000,-0.083000,0.000000,0.000000,0.000000,0.000000,100.000000,200.000000,50.000000
96.000000,109.112000,675.600000,677.940000,-0.730000,-4.690000,-40.460000,-0.082000,0.000000,0.000000,0.000000,0.000000,100.000000,200.000000,50.000000
97.000000,109.087000,675.550000,678.000000,-0.980000,-5.460000,-40.870000,-0.084000,0.000000,0.000000,0.000000,0.000000,100.000000,200.000000,50.000000
98.000000,109.060000,675.490000,678.060000,-0.710000,-5.650000,-41.280000,-0.087000,0.000000,0.000000,0.000000,0.000000,100.000000,200.000000,50.000000
99.000000,109.034000,675.430000,678.130000,-0.990000,-5.090000,-41.690000,-0.088000,0.000000,0.000000,0.000000,0.000000,100.000000,200.000000,50.000000
100.000000,109.008000,675.370000,678.190000,-0.720000,-4.310000,-42.090000,-0.086000,0.000000,0.000000,0.000000,0.000000,100.000000,200.000000,50.000000
101.000000,108.984000,675.310000,678.250000,-0.980000,-4.020000,-42.490000,-0.084000,0.000000,0.000000,0.000000,0.000000,100.000000,200.000000,50.000000
102.000000,108.960000,675.260000,678.310000,-0.740000,-4.470000,-42.870000,-0.082000,0.000000,0.000000,0.000000,0.000000,100.000000,200.000000,50.000000
103.000000,108.935000,675.210000,678.370000,-0.950000,-5.240000,-43.270000,-0.084000,0.000000,0.000000,0.000000,0.000000,100.000000,200.000000,50.000000
104.000000,108.909000,675.150000,678.440000,-0.770000,-5.640000,-43.650000,-0.086000,0.000000,0.000000,0.000000,0.000000,100.000000,200.000000,50.000000
105.000000,108.882000,675.100000,678.500000,-0.910000,-5.290000,-44.050000,-0.088000,0.000000,0.000000,0.000000,0.000000,100.000000,200.000000,50.000000
106.000000,108.856000,675.040000,678.570000,-0.810000,-4.540000,-44.420000,-0.087000,0.000000,0.000000,0.000000,0.000000,100.000000,200.000000,50.000000
107.000000,108.832000,674.980000,678.630000,-0.860000,-4.060000,-44.800000,-0.084000,0.000000,0.000000,0.000000,0.000000,100.000000,200.000000,50.000000
108.000000,108.808000,674.930000,678.690000,-0.860000,-4.290000,-45.170000,-0.083000,0.000000,0.000000,0.000000,0.000000,100.000000,200.000000,50.000000
109.000000,108.783000,674.880000,678.760000,-0.820000,-5.010000,-45.530000,-0.083000,0.000000,0.000000,0.000000,0.000000,100.000000,200.000000,50.000000
110.000000,108.757000,674.830000,678.820000,-0.900000,-5.560000,-45.900000,-0.085000,0.000000,0.000000,0.000000,0.000000,100.000000,200.000000,50.000000
111.000000,108.731000,674.780000,678.890000,-0.780000,-5.440000,-46.260000,-0.088000,0.000000,0.000000,0.000000,0.000000,100.000000,200.000000,50.000000
112.000000,108.705000,674.720000,678.960000,-0.930000,-4.770000,-46.630000,-0.088000,0.000000,0.000000,0.000000,0.000000,100.000000,200.000000,50.000000
113.000000,108.680000,674.670000,679.020000,-0.760000,-4.170000,-46.970000,-0.085000,0.000000,0.000000,0.000000,0.000000,100.000000,200.000000,50.000000
114.000000,108.656000,674.620000,679.090000,-0.950000,-4.180000,-47.320000,-0.083000,0.000000,0.000000,0.000000,0.000000,100.000000,200.000000,50.000000
115.000000,108.631000,674.570000,679.150000,-0.750000,-4.790000,-47.660000,-0.083000,0.000000,0.000000,0.000000,0.000000,100.000000,200.000000,50.000000
116.000000,108.606000,674.520000,679.220000,-0.950000,-5.430000,-48.000000,-0.085000,0.000000,0.000000,0.000000,0.000000,100.000000,200.000000,50.000000
117.000000,108.579000,674.470000,679.290000,-0.760000,-5.520000,-48.340000,-0.087000,0.000000,0.000000,0.000000,0.000000,100.000000,200.000000,50.000000
118.000000,108.553000,674.420000,679.360000,-0.940000,-4.980000,-48.680000,-0.088000,0.000000,0.000000,0.000000,0.000000,100.000000,200.000000,50.000000
119.000000,108.528000,674.370000,679.430000,-0.770000,-4.320000,-49.000000,-0.086000,0.000000,0.000000,0.000000,0.000000,100.000000,200.000000,50.000000
120.000000,108.503000,674.330000,679.500000,-0.920000,-4.130000,-49.320000,-0.084000,0.000000,0.000000,0.000000,0.000000,100.000000,200.000000,50.000000
121.000000,108.479000,674.280000,679.560000,-0.800000,-4.580000,-49.630000,-0.083000,0.000000,0.000000,0.000000,0.000000,100.000000,200.000000,50.000000
122.000000,108.454000,674.230000,679.630000,-0.890000,-5.260000,-49.940000,-0.084000,0.000000,0.000000,0.000000,0.000000,100.000000,200.000000,50.000000
123.000000,108.428000,674.190000,679.700000,-0.830000,-5.540000,-50.250000,-0.086000,0.000000,0.000000,0.000000,0.000000,100.000000,200.000000,50.000000
124.000000,108.401000,674.140000,679.770000,-0.850000,-5.170000,-50.560000,-0.088000,0.000000,0.000000,0.000000,0.000000,100.000000,200.000000,50.000000
125.000000,108.375000,674.090000,679.840000,-0.870000,-4.500000,-50.860000,-0.087000,0.000000,0.000000,0.000000,0.000000,100.000000,200.000000,50.000000
126.000000,108.351000,674.050000,679.910000,-0.820000,-4.140000,-51.150000,-0.084000,0.000000,0.000000,0.000000,0.000000,100.000000,200.000000,50.000000
127.000000,108.327000,674.000000,679.980000,-0.890000,-4.410000,-51.430000,-0.083000,0.000000,0.000000,0.000000,0.000000,100.000000,200.000000,50.000000
128.000000,108.302000,673.960000,680.050000,-0.800000,-5.070000,-51.710000,-0.083000,0.000000,0.000000,0.000000,0.000000,100.000000,200.000000,50.000000
129.000000,108.276000,673.910000,680.120000,-0.910000,-5.500000,-51.990000,-0.086000,0.000000,0.000000,0.000000,0.000000,100.000000,200.000000,50.000000
130.000000,108.250000,673.870000,680.190000,-0.780000,-5.320000,-52.270000,-0.087000,0.000000,0.000000,0.000000,0.000000,100.000000,200.000000,50.000000
131.000000,108.224000,673.820000,680.270000,-0.920000,-4.700000,-52.540000,-0.087000,0.000000,0.000000,0.000000,0.000000,100.000000,200.000000,50.000000
132.000000,108.199000,673.780000,680.340000,-0.780000,-4.210000,-52.790000,-0.085000,0.000000,0.000000,0.000000,0.000000,100.000000,200.000000,50.000000
133.000000,108.175000,673.740000,680.410000,-0.920000,-4.290000,-53.050000,-0.083000,0.000000,0.000000,0.000000,0.000000,100.000000,200.000000,50.000000
134.000000,108.150000,673.690000,680.480000,-0.790000,-4.870000,-53.290000,-0.083000,0.000000,0.000000,0.000000,0.000000,100.000000,200.000000,50.000000
135.000000,108.124000,673.650000,680.550000,-0.910000,-5.400000,-53.540000,-0.085000,0.000000,0.000000,0.000000,0.000000,100.000000,200.000000,50.000000
136.000000,108.098000,673.610000,680.620000,-0.800000,-5.420000,-53.780000,-0.087000,0.000000,0.000000,0.000000,0.000000,100.000000,200.000000,50.000000
137.000000,108.072000,673.570000,680.700000,-0.890000,-4.900000,-54.020000,-0.087000,0.000000,0.000000,0.000000,0.000000,100.000000,200.000000,50.000000
138.000000,108.047000,673.520000,680.770000,-0.820000,-4.330000,-54.240000,-0.086000,0.000000,0.000000,0.000000,0.000000,100.000000,200.000000,50.000000
139.000000,108.022000,673.480000,680.840000,-0.870000,-4.220000,-54.460000,-0.083000,0.000000,0.000000,0.000000,0.000000,100.000000,200.000000,50.000000
140.000000,107.998000,673.440000,680.920000,-0.850000,-4.680000,-54.670000,-0.083000,0.000000,0.000000,0.000000,0.000000,100.000000,200.000000,50.000000
141.000000,107.973000,673.400000,680.990000,-0.850000,-5.270000,-54.880000,-0.084000,0.000000,0.000000,0.000000,0.000000,100.000000,200.000000,50.000000
142.000000,107.946000,673.360000,681.060000,-0.870000,-5.460000,-55.080000,-0.086000,0.000000,0.000000,0.000000,0.000000,100.000000,200.000000,50.000000
143.000000,107.920000,673.320000,681.140000,-0.830000,-5.080000,-55.280000,-0.087000,0.000000,0.000000,0.000000,0.000000,100.000000,200.000000,50.000000
144.000000,107.895000,673.280000,681.210000,-0.890000,-4.480000,-55.470000,-0.086000,0.000000,0.000000,0.000000,0.000000,100.000000,200.000000,50.000000
145.000000,107.870000,673.240000,681.280000,-0.810000,-4.210000,-55.650000,-0.084000,0.000000,748.400000,-1.470400,-0.075800,100.000000,200.000000,50.000000
146.000000,107.846000,673.200000,681.360000,-0.900000,-4.510000,-55.830000,-0.083000,0.000000,751.590000,-1.484400,-0.085500,100.000000,200.000000,50.000000
147.000000,107.821000,673.170000,681.430000,-0.810000,-5.110000,-55.990000,-0.084000,0.000000,743.680000,-1.463600,-0.079000,100.000000,200.000000,50.000000
148.000000,107.795000,673.130000,681.500000,-0.900000,-5.450000,-56.160000,-0.086000,0.000000,743.040000,-1.461900,-0.070400,100.000000,200.000000,50.000000
149.000000,107.768000,673.090000,681.580000,-0.800000,-5.220000,-56.320000,-0.087000,0.000000,742.970000,-1.444700,-0.076900,100.000000,200.000000,50.000000
150.000000,107.743000,673.050000,681.660000,-0.900000,-4.650000,-56.470000,-0.087000,0.000000,753.880000,-1.460300,-0.086400,100.000000,200.000000,50.000000
151.000000,107.718000,673.010000,681.730000,-0.810000,-4.250000,-56.610000,-0.085000,0.000000,756.680000,-1.452800,-0.075500,100.000000,200.000000,50.000000
152.000000,107.694000,672.970000,681.800000,-0.890000,-4.380000,-56.750000,-0.083000,0.000000,756.100000,-1.462000,-0.071200,100.000000,200.000000,50.000000
153.000000,107.669000,672.940000,681.880000,-0.820000,-4.930000,-56.870000,-0.083000,0.000000,761.820000,-1.440400,-0.086300,100.000000,200.000000,50.000000
154.000000,107.643000,672.900000,681.950000,-0.880000,-5.380000,-57.000000,-0.085000,0.000000,749.470000,-1.424600,-0.065300,100.000000,200.000000,50.000000
155.000000,107.617000,672.860000,682.030000,-0.840000,-5.330000,-57.110000,-0.087000,0.000000,759.220000,-1.443000,-0.092600,100.000000,200.000000,50.000000
156.000000,107.591000,672.820000,682.100000,-0.860000,-4.830000,-57.230000,-0.087000,0.000000,751.360000,-1.449300,-0.065900,100.000000,200.000000,50.000000
157.000000,107.566000,672.790000,682.180000,-0.860000,-4.340000,-57.320000,-0.085000,0.000000,756.780000,-1.442400,-0.077900,100.000000,200.000000,50.000000
158.000000,107.541000,672.750000,682.250000,-0.850000,-4.300000,-57.410000,-0.083000,0.000000,748.080000,-1.435600,-0.067400,100.000000,200.000000,50.000000
159.000000,107.517000,672.710000,682.330000,-0.870000,-4.750000,-57.500000,-0.083000,0.000000,749.490000,-1.425000,-0.082300,100.000000,200.000000,50.000000
160.000000,107.491000,672.680000,682.400000,-0.840000,-5.270000,-57.570000,-0.084000,0.000000,749.720000,-1.431200,-0.065200,100.000000,200.000000,50.000000
161.000000,107.465000,672.640000,682.480000,-0.880000,-5.390000,-57.650000,-0.086000,0.000000,753.690000,-1.428100,-0.074000,100.000000,200.000000,50.000000
162.000000,107.439000,672.610000,682.560000,-0.830000,-5.000000,-57.710000,-0.087000,0.000000,752.420000,-1.419900,-0.085100,100.000000,200.000000,50.000000
163.000000,107.414000,672.570000,682.630000,-0.890000,-4.460000,-57.770000,-0.086000,0.000000,750.090000,-1.435600,-0.074600,100.000000,200.000000,50.000000
164.000000,107.389000,672.530000,682.710000,-0.820000,-4.270000,-57.810000,-0.084000,0.000000,749.560000,-1.441600,-0.060800,100.000000,200.000000,50.000000
165.000000,107.365000,672.500000,682.780000,-0.890000,-4.600000,-57.850000,-0.083000,0.000000,758.570000,-1.430700,-0.074800,100.000000,200.000000,50.000000
166.000000,107.340000,672.460000,682.860000,-0.820000,-5.140000,-57.880000,-0.084000,0.000000,747.870000,-1.436000,-0.074700,100.000000,200.000000,50.000000
167.000000,107.314000,672.430000,682.930000,-0.890000,-5.400000,-57.910000,-0.086000,0.000000,751.300000,-1.432400,-0.070900,100.000000,200.000000,50.000000
168.000000,107.287000,672.390000,683.010000,-0.830000,-5.140000,-57.920000,-0.087000,0.000000,750.850000,-1.408100,-0.100400,100.000000,200.000000,50.000000
169.000000,107.262000,672.360000,683.090000,-0.880000,-4.610000,-57.930000,-0.086000,0.000000,751.740000,-1.430200,-0.067300,100.000000,200.000000,50.000000
170.000000,107.237000,672.320000,683.160000,-0.840000,-4.290000,-57.930000,-0.084000,0.000000,751.470000,-1.415000,-0.066200,100.000000,200.000000,50.000000
171.000000,107.213000,672.280000,683.240000,-0.870000,-4.470000,-57.910000,-0.083000,0.000000,754.440000,-1.424200,-0.075900,100.000000,200.000000,50.000000
172.000000,107.188000,672.250000,683.310000,-0.850000,-4.980000,-57.890000,-0.083000,0.000000,757.880000,-1.429700,-0.072800,100.000000,200.000000,50.000000
173.000000,107.162000,672.220000,683.390000,-0.860000,-5.360000,-57.870000,-0.085000,0.000000,751.550000,-1.425300,-0.046800,100.000000,200.000000,50.000000
174.000000,107.136000,672.180000,683.460000,-0.860000,-5.250000,-57.840000,-0.087000,0.000000,753.420000,-1.445300,-0.074300,100.000000,200.000000,50.000000
175.000000,107.110000,672.140000,683.540000,-0.850000,-4.770000,-57.790000,-0.086000,0.000000,744.510000,-1.441100,-0.069100,100.000000,200.000000,50.000000
176.000000,107.085000,672.110000,683.620000,-0.870000,-4.350000,-57.740000,-0.085000,0.000000,751.560000,-1.416500,-0.068500,100.000000,200.000000,50.000000
177.000000,107.060000,672.070000,683.690000,-0.840000,-4.370000,-57.670000,-0.083000,0.000000,748.690000,-1.433200,-0.070600,100.000000,200.000000,50.000000
178.000000,107.036000,672.040000,683.770000,-0.880000,-4.820000,-57.600000,-0.083000,0.000000,752.610000,-1.434100,-0.071500,100.000000,200.000000,50.000000
179.000000,107.010000,672.000000,683.840000,-0.840000,-5.270000,-57.520000,-0.084000,0.000000,746.860000,-1.426100,-0.071700,100.000000,200.000000,50.000000
180.000000,106.984000,671.970000,683.920000,-0.880000,-5.320000,-57.440000,-0.086000,0.000000,751.430000,-1.435400,-0.079400,100.000000,200.000000,50.000000
181.000000,106.958000,671.930000,683.990000,-0.840000,-4.930000,-57.340000,-0.086000,0.000000,752.270000,-1.453400,-0.085900,100.000000,200.000000,50.000000
182.000000,106.933000,671.890000,684.070000,-0.880000,-4.450000,-57.240000,-0.085000,0.000000,757.120000,-1.455100,-0.069700,100.000000,200.000000,50.000000
183.000000,106.908000,671.860000,684.140000,-0.840000,-4.320000,-57.120000,-0.083000,0.000000,746.310000,-1.445000,-0.067300,100.000000,200.000000,50.000000
184.000000,106.884000,671.820000,684.220000,-0.880000,-4.670000,-56.990000,-0.083000,0.000000,757.910000,-1.455700,-0.075200,100.000000,200.000000,50.000000
185.000000,106.858000,671.790000,684.290000,-0.840000,-5.160000,-56.860000,-0.084000,0.000000,747.070000,-1.450100,-0.072300,100.000000,200.000000,50.000000
186.000000,106.832000,671.750000,684.370000,-0.880000,-5.350000,-56.720000,-0.086000,0.000000,756.210000,-1.452700,-0.081500,100.000000,200.000000,50.000000
187.000000,106.806000,671.710000,684.440000,-0.850000,-5.070000,-56.570000,-0.086000,0.000000,754.420000,-1.457700,-0.079400,100.000000,200.000000,50.000000
188.000000,106.781000,671.680000,684.520000,-0.870000,-4.580000,-56.420000,-0.086000,0.000000,752.680000,-1.454900,-0.076000,100.000000,200.000000,50.000000
189.000000,106.756000,671.640000,684.600000,-0.860000,-4.320000,-56.250000,-0.084000,0.000000,756.330000,-1.444300,-0.068400,100.000000,200.000000,50.000000
190.000000,106.732000,671.600000,684.670000,-0.860000,-4.540000,-56.070000,-0.083000,0.000000,744.810000,-1.467900,-0.077700,100.000000,200.000000,50.000000
191.000000,106.707000,671.570000,684.740000,-0.870000,-5.020000,-55.880000,-0.083000,0.000000,750.740000,-1.456700,-0.073700,100.000000,200.000000,50.000000
192.000000,106.681000,671.530000,684.820000,-0.860000,-5.330000,-55.690000,-0.085000,0.000000,750.100000,-1.482300,-0.072900,100.000000,200.000000,50.000000
193.000000,106.655000,671.490000,684.890000,-0.870000,-5.190000,-55.490000,-0.086000,0.000000,750.470000,-1.476800,-0.073300,100.000000,200.000000,50.000000
194.000000,106.629000,671.450000,684.970000,-0.850000,-4.720000,-55.290000,-0.086000,0.000000,753.120000,-1.470700,-0.081900,100.000000,200.000000,50.000000
195.000000,106.604000,671.420000,685.040000,-0.880000,-4.360000,-55.070000,-0.084000,0.000000,758.100000,-1.472800,-0.085900,100.000000,200.000000,50.000000
196.000000,106.580000,671.380000,685.120000,-0.850000,-4.440000,-54.840000,-0.083000,0.000000,750.250000,-1.485200,-0.068100,100.000000,200.000000,50.000000
197.000000,106.555000,671.340000,685.190000,-0.880000,-4.870000,-54.600000,-0.083000,0.000000,750.180000,-1.491200,-0.070200,100.000000,200.000000,50.000000
198.000000,106.529000,671.300000,685.260000,-0.850000,-5.270000,-54.360000,-0.084000,0.000000,746.680000,-1.488800,-0.072000,100.000000,200.000000,50.000000
199.000000,106.503000,671.260000,685.340000,-0.880000,-5.270000,-54.110000,-0.086000,0.000000,755.990000,-1.504700,-0.061600,100.000000,200.000000,50.000000
200.000000,106.477000,671.220000,685.410000,-0.850000,-4.870000,-53.860000,-0.086000,0.000000,750.160000,-1.493800,-0.081200,100.000000,200.000000,50.000000
201.000000,106.452000,671.180000,685.490000,-0.880000,-4.440000,-53.590000,-0.085000,0.000000,748.060000,-1.501400,-0.057700,100.000000,200.000000,50.000000
202.000000,106.428000,671.140000,685.560000,-0.860000,-4.380000,-53.320000,-0.083000,0.000000,745.420000,-1.508900,-0.062600,100.000000,200.000000,50.000000
203.000000,106.403000,671.100000,685.630000,-0.870000,-4.730000,-53.030000,-0.083000,0.000000,757.760000,-1.511300,-0.074400,100.000000,200.000000,50.000000
204.000000,106.378000,671.060000,685.700000,-0.860000,-5.180000,-52.750000,-0.084000,0.000000,755.100000,-1.518700,-0.072100,100.000000,200.000000,50.000000
205.000000,106.352000,671.020000,685.780000,-0.870000,-5.310000,-52.460000,-0.085000,0.000000,746.980000,-1.524900,-0.082700,100.000000,200.000000,50.000000
206.000000,106.326000,670.980000,685.850000,-0.860000,-5.010000,-52.160000,-0.086000,0.000000,749.270000,-1.526100,-0.071900,100.000000,200.000000,50.000000
207.000000,106.300000,670.940000,685.920000,-0.860000,-4.550000,-51.850000,-0.085000,0.000000,758.500000,-1.529400,-0.063200,100.000000,200.000000,50.000000
208.000000,106.275000,670.900000,685.990000,-0.870000,-4.360000,-51.530000,-0.083000,0.000000,751.360000,-1.559100,-0.075400,100.000000,200.000000,50.000000
209.000000,106.251000,670.860000,686.070000,-0.860000,-4.600000,-51.210000,-0.083000,0.000000,743.160000,-1.536900,-0.090800,100.000000,200.000000,50.000000
210.000000,106.226000,670.810000,686.140000,-0.880000,-5.060000,-50.880000,-0.083000,0.000000,747.610000,-1.542600,-0.051900,100.000000,200.000000,50.000000
211.000000,106.200000,670.770000,686.210000,-0.860000,-5.300000,-50.550000,-0.085000,0.000000,753.090000,-1.560700,-0.092300,100.000000,200.000000,50.000000
212.000000,106.174000,670.730000,686.280000,-0.880000,-5.120000,-50.210000,-0.086000,0.000000,746.760000,-1.565000,-0.063000,100.000000,200.000000,50.000000
213.000000,106.148000,670.680000,686.350000,-0.860000,-4.680000,-49.860000,-0.085000,0.000000,754.850000,-1.574100,-0.082800,100.000000,200.000000,50.000000
214.000000,106.123000,670.640000,686.420000,-0.880000,-4.380000,-49.510000,-0.084000,0.000000,756.020000,-1.551600,-0.072800,100.000000,200.000000,50.000000
215.000000,106.099000,670.590000,686.490000,-0.860000,-4.500000,-49.150000,-0.083000,0.000000,756.020000,-1.551600,-0.072800,100.000000,200.000000,50.000000
216.000000,106.074000,670.550000,686.560000,-0.880000,-4.920000,-48.780000,-0.083000,0.000000,756.020000,-1.551600,-0.072800,100.000000,200.000000,50.000000
217.000000,106.049000,670.510000,686.630000,-0.860000,-5.260000,-48.410000,-0.084000,0.000000,756.020000,-1.551600,-0.072800,100.000000,200.000000,50.000000
218.000000,106.022000,670.460000,686.700000,-0.870000,-5.210000,-48.040000,-0.086000,0.000000,756.020000,-1.551600,-0.072800,100.000000,200.000000,50.000000
219.000000,105.997000,670.410000,686.770000,-0.860000,-4.810000,-47.660000,-0.086000,0.000000,756.020000,-1.551600,-0.072800,100.000000,200.000000,50.000000
220.000000,105.972000,670.360000,686.840000,-0.870000,-4.440000,-47.280000,-0.084000,0.000000,756.020000,-1.551600,-0.072800,100.000000,200.000000,50.000000
221.000000,105.947000,670.320000,686.910000,-0.870000,-4.430000,-46.880000,-0.083000,0.000000,756.020000,-1.551600,-0.072800,100.000000,200.000000,50.000000
222.000000,105.922000,670.270000,686.970000,-0.870000,-4.790000,-46.490000,-0.083000,0.000000,756.020000,-1.551600,-0.072800,100.000000,200.000000,50.000000
223.000000,105.897000,670.220000,687.040000,-0.870000,-5.190000,-46.090000,-0.084000,0.000000,756.020000,-1.551600,-0.072800,100.000000,200.000000,50.000000
224.000000,105.871000,670.170000,687.110000,-0.870000,-5.260000,-45.680000,-0.085000,0.000000,756.020000,-1.551600,-0.072800,100.000000,200.000000,50.000000
225.000000,105.845000,670.120000,687.180000,-0.870000,-4.950000,-45.280000,-0.086000,0.000000,756.020000,-1.551600,-0.072800,100.000000,200.000000,50.000000
226.000000,105.820000,670.070000,687.240000,-0.860000,-4.530000,-44.860000,-0.085000,0.000000,756.020000,-1.551600,-0.072800,100.000000,200.000000,50.000000
227.000000,105.795000,670.020000,687.310000,-0.880000,-4.390000,-44.440000,-0.083000,0.000000,756.020000,-1.551600,-0.072800,100.000000,200.000000,50.000000
228.000000,105.771000,669.980000,687.380000,-0.860000,-4.660000,-44.020000,-0.082000,0.000000,756.020000,-1.551600,-0.072800,100.000000,200.000000,50.000000
229.000000,105.745000,669.930000,687.440000,-0.880000,-5.080000,-43.590000,-0.083000,0.000000,756.020000,-1.551600,-0.072800,100.000000,200.000000,50.000000
230.000000,105.720000,669.870000,687.510000,-0.860000,-5.280000,-43.170000,-0.085000,0.000000,756.020000,-1.551600,-0.072800,100.000000,200.000000,50.000000
231.000000,105.693000,669.820000,687.570000,-0.870000,-5.060000,-42.730000,-0.086000,0.000000,756.020000,-1.551600,-0.072800,100.000000,200.000000,50.000000
232.000000,105.668000,669.770000,687.640000,-0.860000,-4.640000,-42.300000,-0.085000,0.000000,756.020000,-1.551600,-0.072800,100.000000,200.000000,50.000000
233.000000,105.643000,669.720000,687.700000,-0.880000,-4.400000,-41.860000,-0.083000,0.000000,756.020000,-1.551600,-0.072800,100.000000,200.000000,50.000000
234.000000,105.619000,669.660000,687.770000,-0.870000,-4.550000,-41.410000,-0.082000,0.000000,756.020000,-1.551600,-0.072800,100.000000,200.000000,50.000000
235.000000,105.594000,669.610000,687.830000,-0.870000,-4.960000,-40.960000,-0.083000,0.000000,756.020000,-1.551600,-0.072800,100.000000,200.000000,50.000000
236.000000,105.568000,669.560000,687.890000,-0.870000,-5.250000,-40.510000,-0.084000,0.000000,756.020000,-1.551600,-0.072800,100.000000,200.000000,50.000000
237.000000,105.542000,669.500000,687.950000,-0.870000,-5.160000,-40.060000,-0.085000,0.000000,756.020000,-1.551600,-0.072800,100.000000,200.000000,50.000000
238.000000,105.516000,669.450000,688.020000,-0.870000,-4.770000,-39.600000,-0.085000,0.000000,756.020000,-1.551600,-0.072800,100.000000,200.000000,50.000000
239.000000,105.491000,669.390000,688.080000,-0.870000,-4.440000,-39.140000,-0.084000,0.000000,756.020000,-1.551600,-0.072800,100.000000,200.000000,50.000000
240.000000,105.467000,669.330000,688.140000,-0.870000,-4.470000,-38.680000,-0.083000,0.000000,756.020000,-1.551600,-0.072800,100.000000,200.000000,50.000000
241.000000,105.442000,669.280000,688.200000,-0.870000,-4.840000,-38.210000,-0.083000,0.000000,756.020000,-1.551600,-0.072800,100.000000,200.000000,50.000000
242.000000,105.417000,669.220000,688.260000,-0.870000,-5.190000,-37.740000,-0.084000,0.000000,756.020000,-1.551600,-0.072800,100.000000,200.000000,50.000000
243.000000,105.391000,669.160000,688.320000,-0.870000,-5.220000,-37.270000,-0.085000,0.000000,756.020000,-1.551600,-0.072800,100.000000,200.000000,50.000000
244.000000,105.365000,669.110000,688.380000,-0.870000,-4.890000,-36.800000,-0.085000,0.000000,756.020000,-1.551600,-0.072800,100.000000,200.000000,50.000000
245.000000,105.340000,669.050000,688.440000,-0.870000,-4.520000,-36.330000,-0.084000,0.000000,756.020000,-1.551600,-0.072800,100.000000,200.000000,50.000000
246.000000,105.315000,668.990000,688.500000,-0.880000,-4.430000,-35.850000,-0.083000,0.000000,756.020000,-1.551600,-0.072800,100.000000,200.000000,50.000000
247.000000,105.290000,668.930000,688.550000,-0.870000,-4.710000,-35.360000,-0.082000,0.000000,756.020000,-1.551600,-0.072800,100.000000,200.000000,50.000000
248.000000,105.265000,668.870000,688.610000,-0.880000,-5.110000,-34.880000,-0.083000,0.000000,756.020000,-1.551600,-0.072800,100.000000,200.000000,50.000000
249.000000,105.239000,668.810000,688.670000,-0.870000,-5.250000,-34.400000,-0.085000,0.000000,756.020000,-1.551600,-0.072800,100.000000,200.000000,50.000000
250.000000,105.213000,668.750000,688.730000,-0.870000,-5.010000,-33.910000,-0.085000,0.000000,756.020000,-1.551600,-0.072800,100.000000,200.000000,50.000000
251.000000,105.188000,668.690000,688.780000,-0.870000,-4.610000,-33.430000,-0.085000,0.000000,756.020000,-1.551600,-0.072800,100.000000,200.000000,50.000000
252.000000,105.163000,668.620000,688.840000,-0.870000,-4.420000,-32.930000,-0.083000,0.000000,756.020000,-1.551600,-0.072800,100.000000,200.000000,50.000000
253.000000,105.138000,668.560000,688.890000,-0.870000,-4.610000,-32.440000,-0.082000,0.000000,756.020000,-1.551600,-0.072800,100.000000,200.000000,50.000000
254.000000,105.113000,668.500000,688.950000,-0.870000,-5.000000,-31.940000,-0.083000,0.000000,756.020000,-1.551600,-0.072800,100.000000,200.000000,50.000000
255.000000,105.088000,668.440000,689.000000,-0.870000,-5.240000,-31.450000,-0.084000,0.000000,756.020000,-1.551600,-0.072800,100.000000,200.000000,50.000000
256.000000,105.062000,668.370000,689.050000,-0.870000,-5.110000,-30.960000,-0.085000,0.000000,756.020000,-1.551600,-0.072800,100.000000,200.000000,50.000000
257.000000,105.036000,668.310000,689.110000,-0.870000,-4.730000,-30.460000,-0.085000,0.000000,756.020000,-1.551600,-0.072800,100.000000,200.000000,50.000000
258.000000,105.011000,668.240000,689.160000,-0.870000,-4.450000,-29.960000,-0.084000,0.000000,756.020000,-1.551600,-0.072800,100.000000,200.000000,50.000000
259.000000,104.987000,668.180000,689.210000,-0.870000,-4.520000,-29.450000,-0.083000,0.000000,756.020000,-1.551600,-0.072800,100.000000,200.000000,50.000000
260.000000,104.962000,668.110000,689.260000,-0.870000,-4.880000,-28.950000,-0.083000,0.000000,756.020000,-1.551600,-0.072800,100.000000,200.000000,50.000000
261.000000,104.936000,668.050000,689.310000,-0.870000,-5.200000,-28.440000,-0.084000,0.000000,756.020000,-1.551600,-0.072800,100.000000,200.000000,50.000000
262.000000,104.910000,667.980000,689.360000,-0.870000,-5.180000,-27.940000,-0.085000,0.000000,756.020000,-1.551600,-0.072800,100.000000,200.000000,50.000000
263.000000,104.885000,667.920000,689.410000,-0.870000,-4.850000,-27.430000,-0.085000,0.000000,756.020000,-1.551600,-0.072800,100.000000,200.000000,50.000000
264.000000,104.859000,667.850000,689.460000,-0.870000,-4.510000,-26.920000,-0.084000,0.000000,756.020000,-1.551600,-0.072800,100.000000,200.000000,50.000000
265.000000,104.835000,667.780000,689.510000,-0.870000,-4.470000,-26.410000,-0.083000,0.000000,756.020000,-1.551600,-0.072800,100.000000,200.000000,50.000000
266.000000,104.810000,667.710000,689.560000,-0.870000,-4.760000,-25.900000,-0.082000,0.000000,756.020000,-1.551600,-0.072800,100.000000,200.000000,50.000000
267.000000,104.785000,667.650000,689.600000,-0.870000,-5.120000,-25.390000,-0.083000,0.000000,756.020000,-1.551600,-0.072800,100.000000,200.000000,50.000000
268.000000,104.759000,667.580000,689.650000,-0.870000,-5.220000,-24.870000,-0.085000,0.000000,756.020000,-1.551600,-0.072800,100.000000,200.000000,50.000000
269.000000,104.733000,667.510000,689.690000,-0.870000,-4.960000,-24.360000,-0.085000,0.000000,756.020000,-1.551600,-0.072800,100.000000,200.000000,50.000000
270.000000,104.708000,667.440000,689.740000,-0.870000,-4.590000,-23.850000,-0.084000,0.000000,756.020000,-1.551600,-0.072800,100.000000,200.000000,50.000000
271.000000,104.683000,667.370000,689.780000,-0.870000,-4.440000,-23.330000,-0.083000,0.000000,756.020000,-1.551600,-0.072800,100.000000,200.000000,50.000000
272.000000,104.658000,667.300000,689.830000,-0.870000,-4.650000,-22.810000,-0.082000,0.000000,756.020000,-1.551600,-0.072800,100.000000,200.000000,50.000000
273.000000,104.633000,667.230000,689.870000,-0.870000,-5.030000,-22.290000,-0.083000,0.000000,756.020000,-1.551600,-0.072800,100.000000,200.000000,50.000000
274.000000,104.608000,667.160000,689.910000,-0.870000,-5.220000,-21.770000,-0.084000,0.000000,756.020000,-1.551600,-0.072800,100.000000,200.000000,50.000000
275.000000,104.582000,667.080000,689.950000,-0.870000,-5.060000,-21.260000,-0.085000,0.000000,756.020000,-1.551600,-0.072800,100.000000,200.000000,50.000000
276.000000,104.556000,667.010000,690.000000,-0.870000,-4.690000,-20.740000,-0.085000,0.000000,756.020000,-1.551600,-0.072800,100.000000,200.000000,50.000000
277.000000,104.531000,666.940000,690.040000,-0.870000,-4.460000,-20.210000,-0.083000,0.000000,756.020000,-1.551600,-0.072800,100.000000,200.000000,50.000000
278.000000,104.507000,666.870000,690.080000,-0.870000,-4.570000,-19.690000,-0.082000,0.000000,756.020000,-1.551600,-0.072800,100.000000,200.000000,50.000000
279.000000,104.482000,666.790000,690.120000,-0.870000,-4.920000,-19.160000,-0.083000,0.000000,756.020000,-1.551600,-0.072800,100.000000,200.000000,50.000000
280.000000,104.456000,666.720000,690.150000,-0.870000,-5.190000,-18.640000,-0.084000,0.000000,756.020000,-1.551600,-0.072800,100.000000,200.000000,50.000000
281.000000,104.430000,666.650000,690.190000,-0.870000,-5.140000,-18.120000,-0.085000,0.000000,756.020000,-1.551600,-0.072800,100.000000,200.000000,50.000000
282.000000,104.405000,666.570000,690.230000,-0.870000,-4.800000,-17.600000,-0.085000,0.000000,756.020000,-1.551600,-0.072800,100.000000,200.000000,50.000000
283.000000,104.379000,666.500000,690.270000,-0.870000,-4.500000,-17.070000,-0.084000,0.000000,756.020000,-1.551600,-0.072800,100.000000,200.000000,50.000000
284.000000,104.355000,666.420000,690.300000,-0.870000,-4.500000,-16.540000,-0.083000,0.000000,756.020000,-1.551600,-0.072800,100.000000,200.000000,50.000000
285.000000,104.330000,666.350000,690.340000,-0.870000,-4.810000,-16.010000,-0.082000,0.000000,756.020000,-1.551600,-0.072800,100.000000,200.000000,50.000000
286.000000,104.305000,666.270000,690.370000,-0.870000,-5.140000,-15.490000,-0.083000,0.000000,756.020000,-1.551600,-0.072800,100.000000,200.000000,50.000000
287.000000,104.279000,666.200000,690.410000,-0.870000,-5.190000,-14.960000,-0.085000,0.000000,756.020000,-1.551600,-0.072800,100.000000,200.000000,50.000000
288.000000,104.253000,666.120000,690.440000,-0.870000,-4.920000,-14.430000,-0.085000,0.000000,756.020000,-1.551600,-0.072800,100.000000,200.000000,50.000000
289.000000,104.228000,666.040000,690.470000,-0.870000,-4.570000,-13.900000,-0.084000,0.000000,756.020000,-1.551600,-0.072800,100.000000,200.000000,50.000000
290.000000,104.203000,665.970000,690.500000,-0.870000,-4.470000,-13.370000,-0.083000,0.000000,756.020000,-1.551600,-0.072800,100.000000,200.000000,50.000000
291.000000,104.178000,665.890000,690.530000,-0.870000,-4.700000,-12.840000,-0.082000,0.000000,756.020000,-1.551600,-0.072800,100.000000,200.000000,50.000000
292.000000,104.153000,665.810000,690.560000,-0.870000,-5.050000,-12.310000,-0.083000,0.000000,756.020000,-1.551600,-0.072800,100.000000,200.000000,50.000000
293.000000,104.127000,665.740000,690.590000,-0.870000,-5.200000,-11.780000,-0.084000,0.000000,756.020000,-1.551600,-0.072800,100.000000,200.000000,50.000000
294.000000,104.102000,665.660000,690.620000,-0.870000,-5.020000,-11.250000,-0.085000,0.000000,756.020000,-1.551600,-0.072800,100.000000,200.000000,50.000000
295.000000,104.076000,665.580000,690.650000,-0.870000,-4.660000,-10.720000,-0.085000,0.000000,756.020000,-1.551600,-0.072800,100.000000,200.000000,50.000000
296.000000,104.051000,665.500000,690.680000,-0.870000,-4.470000,-10.190000,-0.083000,0.000000,756.020000,-1.551600,-0.072800,100.000000,200.000000,50.000000
297.000000,104.027000,665.420000,690.710000,-0.870000,-4.610000,-9.650000,-0.082000,0.000000,756.020000,-1.551600,-0.072800,100.000000,200.000000,50.000000
298.000000,104.002000,665.350000,690.730000,-0.870000,-4.950000,-9.120000,-0.083000,0.000000,756.020000,-1.551600,-0.072800,100.000000,200.000000,50.000000
299.000000,103.976000,665.270000,690.760000,-0.870000,-5.190000,-8.590000,-0.084000,0.000000,756.020000,-1.551600,-0.072800,100.000000,200.000000,50.000000
300.000000,103.950000,665.190000,690.780000,-0.870000,-5.100000,-8.060000,-0.085000,0.000000,756.020000,-1.551600,-0.072800,100.000000,200.000000,50.000000
301.000000,103.924000,665.110000,690.800000,-0.870000,-4.770000,-7.520000,-0.085000,0.000000,756.020000,-1.551600,-0.072800,100.000000,200.000000,50.000000
302.000000,103.899000,665.030000,690.830000,-0.870000,-4.500000,-6.990000,-0.084000,0.000000,756.020000,-1.551600,-0.072800,100.000000,200.000000,50.000000
303.000000,103.875000,664.950000,690.850000,-0.870000,-4.540000,-6.450000,-0.083000,0.000000,756.020000,-1.551600,-0.072800,100.000000,200.000000,50.000000
304.000000,103.850000,664.870000,690.870000,-0.870000,-4.850000,-5.910000,-0.083000,0.000000,756.020000,-1.551600,-0.072800,100.000000,200.000000,50.000000
305.000000,103.825000,664.790000,690.890000,-0.870000,-5.140000,-5.380000,-0.084000,0.000000,756.020000,-1.551600,-0.072800,100.000000,200.000000,50.000000
306.000000,103.799000,664.710000,690.910000,-0.870000,-5.160000,-4.850000,-0.085000,0.000000,756.020000,-1.551600,-0.072800,100.000000,200.000000,50.000000
307.000000,103.773000,664.630000,690.930000,-0.870000,-4.870000,-4.310000,-0.085000,0.000000,756.020000,-1.551600,-0.072800,100.000000,200.000000,50.000000
308.000000,103.748000,664.540000,690.950000,-0.870000,-4.560000,-3.780000,-0.084000,0.000000,756.020000,-1.551600,-0.072800,100.000000,200.000000,50.000000
309.000000,103.723000,664.460000,690.970000,-0.870000,-4.490000,-3.240000,-0.083000,0.000000,756.020000,-1.551600,-0.072800,100.000000,200.000000,50.000000
310.000000,103.698000,664.380000,690.980000,-0.870000,-4.740000,-2.700000,-0.082000,0.000000,756.020000,-1.551600,-0.072800,100.000000,200.000000,50.000000
311.000000,103.673000,664.300000,691.000000,-0.870000,-5.070000,-2.160000,-0.083000,0.000000,756.020000,-1.551600,-0.072800,100.000000,200.000000,50.000000
312.000000,103.647000,664.220000,691.020000,-0.870000,-5.180000,-1.630000,-0.084000,0.000000,756.020000,-1.551600,-0.072800,100.000000,200.000000,50.000000
313.000000,103.621000,664.140000,691.030000,-0.870000,-4.970000,-1.090000,-0.085000,0.000000,756.020000,-1.551600,-0.072800,100.000000,200.000000,50.000000
314.000000,103.596000,664.060000,691.050000,-0.870000,-4.640000,-0.560000,-0.084000,0.000000,756.020000,-1.551600,-0.072800,100.000000,200.000000,50.000000
315.000000,103.571000,663.980000,691.060000,-0.870000,-4.480000,-0.020000,-0.083000,0.000000,756.020000,-1.551600,-0.072800,100.000000,200.000000,50.000000
316.000000,103.547000,663.890000,691.070000,-0.870000,-4.650000,0.520000,-0.082000,0.000000,756.020000,-1.551600,-0.072800,100.000000,200.000000,50.000000
317.000000,103.522000,663.810000,691.080000,-0.870000,-4.990000,1.060000,-0.083000,0.000000,756.020000,-1.551600,-0.072800,100.000000,200.000000,50.000000
318.000000,103.496000,663.730000,691.090000,-0.870000,-5.180000,1.600000,-0.084000,0.000000,756.020000,-1.551600,-0.072800,100.000000,200.000000,50.000000
319.000000,103.470000,663.650000,691.100000,-0.870000,-5.060000,2.130000,-0.085000,0.000000,756.020000,-1.551600,-0.072800,100.000000,200.000000,50.000000
320.000000,103.444000,663.560000,691.110000,-0.870000,-4.730000,2.670000,-0.085000,0.000000,756.020000,-1.551600,-0.072800,100.000000,200.000000,50.000000
321.000000,103.420000,663.480000,691.120000,-0.870000,-4.500000,3.210000,-0.084000,0.000000,756.020000,-1.551600,-0.072800,100.000000,200.000000,50.000000
322.000000,103.395000,663.400000,691.130000,-0.870000,-4.570000,3.750000,-0.083000,0.000000,756.020000,-1.551600,-0.072800,100.000000,200.000000,50.000000
323.000000,103.370000,663.320000,691.140000,-0.870000,-4.890000,4.290000,-0.083000,0.000000,756.020000,-1.551600,-0.072800,100.000000,200.000000,50.000000
324.000000,103.344000,663.240000,691.140000,-0.870000,-5.150000,4.830000,-0.084000,0.000000,756.020000,-1.551600,-0.072800,100.000000,200.000000,50.000000
325.000000,103.319000,663.150000,691.150000,-0.870000,-5.120000,5.370000,-0.085000,0.000000,756.020000,-1.551600,-0.072800,100.000000,200.000000,50.000000
326.000000,103.293000,663.070000,691.150000,-0.870000,-4.830000,5.910000,-0.085000,0.000000,756.020000,-1.551600,-0.072800,100.000000,200.000000,50.000000
327.000000,103.268000,662.990000,691.160000,-0.870000,-4.550000,6.450000,-0.084000,0.000000,756.020000,-1.551600,-0.072800,100.000000,200.000000,50.000000
328.000000,103.243000,662.900000,691.160000,-0.870000,-4.520000,6.990000,-0.083000,0.000000,756.020000,-1.551600,-0.072800,100.000000,200.000000,50.000000
329.000000,103.218000,662.820000,691.160000,-0.870000,-4.780000,7.530000,-0.083000,0.000000,756.020000,-1.551600,-0.072800,100.000000,200.000000,50.000000
330.000000,103.193000,662.740000,691.160000,-0.870000,-5.090000,8.070000,-0.083000,0.000000,756.020000,-1.551600,-0.072800,100.000000,200.000000,50.000000
331.000000,103.167000,662.660000,691.170000,-0.870000,-5.160000,8.610000,-0.085000,0.000000,756.020000,-1.551600,-0.072800,100.000000,200.000000,50.000000
332.000000,103.141000,662.570000,691.160000,-0.870000,-4.930000,9.150000,-0.085000,0.000000,756.020000,-1.551600,-0.072800,100.000000,200.000000,50.000000
333.000000,103.116000,662.490000,691.160000,-0.870000,-4.610000,9.690000,-0.084000,0.000000,756.020000,-1.551600,-0.072800,100.000000,200.000000,50.000000
334.000000,103.091000,662.410000,691.160000,-0.870000,-4.500000,10.230000,-0.083000,0.000000,756.020000,-1.551600,-0.072800,100.000000,200.000000,50.000000
335.000000,103.067000,662.320000,691.160000,-0.870000,-4.690000,10.770000,-0.083000,0.000000,756.020000,-1.551600,-0.072800,100.000000,200.000000,50.000000
336.000000,103.041000,662.240000,691.160000,-0.870000,-5.010000,11.310000,-0.083000,0.000000,756.020000,-1.551600,-0.072800,100.000000,200.000000,50.000000
337.000000,103.016000,662.160000,691.150000,-0.870000,-5.170000,11.850000,-0.084000,0.000000,756.020000,-1.551600,-0.072800,100.000000,200.000000,50.000000
338.000000,102.990000,662.080000,691.150000,-0.870000,-5.020000,12.390000,-0.085000,0.000000,756.020000,-1.551600,-0.072800,100.000000,200.000000,50.000000
339.000000,102.965000,661.990000,691.140000,-0.870000,-4.700000,12.930000,-0.084000,0.000000,756.020000,-1.551600,-0.072800,100.000000,200.000000,50.000000
340.000000,102.940000,661.910000,691.140000,-0.870000,-4.500000,13.480000,-0.083000,0.000000,756.020000,-1.551600,-0.072800,100.000000,200.000000,50.000000
341.000000,102.915000,661.830000,691.130000,-0.870000,-4.610000,14.020000,-0.083000,0.000000,756.020000,-1.551600,-0.072800,100.000000,200.000000,50.000000
342.000000,102.890000,661.750000,691.120000,-0.870000,-4.920000,14.560000,-0.083000,0.000000,756.020000,-1.551600,-0.072800,100.000000,200.000000,50.000000
343.000000,102.864000,661.660000,691.110000,-0.870000,-5.150000,15.100000,-0.084000,0.000000,756.020000,-1.551600,-0.072800,100.000000,200.000000,50.000000
344.000000,102.839000,661.580000,691.100000,-0.870000,-5.090000,15.640000,-0.085000,0.000000,756.020000,-1.551600,-0.072800,100.000000,200.000000,50.000000
345.000000,102.813000,661.500000,691.090000,-0.870000,-4.800000,16.180000,-0.085000,0.000000,756.020000,-1.551600,-0.072800,100.000000,200.000000,50.000000
346.000000,102.788000,661.420000,691.080000,-0.870000,-4.540000,16.720000,-0.084000,0.000000,756.020000,-1.551600,-0.072800,100.000000,200.000000,50.000000
347.000000,102.763000,661.330000,691.070000,-0.870000,-4.550000,17.270000,-0.083000,0.000000,756.020000,-1.551600,-0.072800,100.000000,200.000000,50.000000
348.000000,102.738000,661.250000,691.060000,-0.870000,-4.820000,17.810000,-0.083000,0.000000,756.020000,-1.551600,-0.072800,100.000000,200.000000,50.000000
349.000000,102.713000,661.170000,691.050000,-0.870000,-5.100000,18.350000,-0.084000,0.000000,756.020000,-1.551600,-0.072800,100.000000,200.000000,50.000000
350.000000,102.687000,661.090000,691.030000,-0.870000,-5.140000,18.890000,-0.085000,0.000000,756.020000,-1.551600,-0.072800,100.000000,200.000000,50.000000
351.000000,102.661000,661.010000,691.020000,-0.870000,-4.890000,19.430000,-0.085000,0.000000,756.020000,-1.551600,-0.072800,100.000000,200.000000,50.000000
352.000000,102.636000,660.920000,691.000000,-0.870000,-4.600000,19.980000,-0.084000,0.000000,756.020000,-1.551600,-0.072800,100.000000,200.000000,50.000000
353.000000,102.611000,660.840000,690.990000,-0.870000,-4.520000,20.520000,-0.083000,0.000000,756.020000,-1.551600,-0.072800,100.000000,200.000000,50.000000
354.000000,102.587000,660.760000,690.970000,-0.870000,-4.730000,21.070000,-0.083000,0.000000,756.020000,-1.551600,-0.072800,100.000000,200.000000,50.000000
355.000000,102.561000,660.680000,690.950000,-0.870000,-5.040000,21.610000,-0.083000,0.000000,756.020000,-1.551600,-0.072800,100.000000,200.000000,50.000000
356.000000,102.536000,660.600000,690.930000,-0.870000,-5.160000,22.150000,-0.084000,0.000000,756.020000,-1.551600,-0.072800,100.000000,200.000000,50.000000
357.000000,102.510000,660.520000,690.910000,-0.870000,-4.980000,22.690000,-0.085000,0.000000,756.020000,-1.551600,-0.072800,100.000000,200.000000,50.000000
358.000000,102.485000,660.440000,690.890000,-0.870000,-4.670000,23.230000,-0.084000,0.000000,756.020000,-1.551600,-0.072800,100.000000,200.000000,50.000000
359.000000,102.460000,660.360000,690.870000,-0.870000,-4.510000,23.780000,-0.083000,0.000000,756.020000,-1.551600,-0.072800,100.000000,200.000000,50.000000
360.000000,102.435000,660.280000,690.850000,-0.870000,-4.650000,24.320000,-0.083000,0.000000,756.020000,-1.551600,-0.072800,100.000000,200.000000,50.000000
361.000000,102.410000,660.200000,690.830000,-0.870000,-4.950000,24.860000,-0.083000,0.000000,756.020000,-1.551600,-0.072800,100.000000,200.000000,50.000000
362.000000,102.384000,660.120000,690.800000,-0.870000,-5.150000,25.410000,-0.084000,0.000000,756.020000,-1.551600,-0.072800,100.000000,200.000000,50.000000
363.000000,102.358000,660.040000,690.780000,-0.870000,-5.060000,25.950000,-0.085000,0.000000,756.020000,-1.551600,-0.072800,100.000000,200.000000,50.000000
364.000000,102.333000,659.960000,690.760000,-0.870000,-4.760000,26.490000,-0.085000,0.000000,756.020000,-1.551600,-0.072800,100.000000,200.000000,50.000000
365.000000,102.308000,659.880000,690.730000,-0.870000,-4.540000,27.030000,-0.084000,0.000000,756.020000,-1.551600,-0.072800,100.000000,200.000000,50.000000
366.000000,102.283000,659.800000,690.700000,-0.870000,-4.580000,27.580000,-0.083000,0.000000,756.020000,-1.551600,-0.072800,100.000000,200.000000,50.000000
367.000000,102.258000,659.730000,690.680000,-0.870000,-4.860000,28.120000,-0.083000,0.000000,756.020000,-1.551600,-0.072800,100.000000,200.000000,50.000000
368.000000,102.233000,659.650000,690.650000,-0.870000,-5.110000,28.660000,-0.084000,0.000000,756.020000,-1.551600,-0.072800,100.000000,200.000000,50.000000
369.000000,102.207000,659.570000,690.620000,-0.870000,-5.110000,29.210000,-0.085000,0.000000,756.020000,-1.551600,-0.072800,100.000000,200.000000,50.000000
370.000000,102.181000,659.490000,690.590000,-0.870000,-4.860000,29.750000,-0.085000,0.000000,756.020000,-1.551600,-0.072800,100.000000,200.000000,50.000000
371.000000,102.156000,659.420000,690.560000,-0.870000,-4.580000,30.290000,-0.084000,0.000000,756.020000,-1.551600,-0.072800,100.000000,200.000000,50.000000
372.000000,102.131000,659.340000,690.530000,-0.870000,-4.540000,30.840000,-0.083000,0.000000,756.020000,-1.551600,-0.072800,100.000000,200.000000,50.000000
373.000000,102.107000,659.260000,690.500000,-0.870000,-4.770000,31.380000,-0.083000,0.000000,756.020000,-1.551600,-0.072800,100.000000,200.000000,50.000000
374.000000,102.081000,659.190000,690.470000,-0.870000,-5.050000,31.930000,-0.083000,0.000000,756.020000,-1.551600,-0.072800,100.000000,200.000000,50.000000
375.000000,102.056000,659.110000,690.440000,-0.870000,-5.140000,32.470000,-0.084000,0.000000,756.020000,-1.551600,-0.072800,100.000000,200.000000,50.000000
376.000000,102.030000,659.030000,690.400000,-0.870000,-4.950000,33.010000,-0.085000,0.000000,756.020000,-1.551600,-0.072800,100.000000,200.000000,50.000000
377.000000,102.005000,658.960000,690.370000,-0.870000,-4.650000,33.550000,-0.084000,0.000000,756.020000,-1.551600,-0.072800,100.000000,200.000000,50.000000
378.000000,101.980000,658.880000,690.330000,-0.870000,-4.520000,34.100000,-0.083000,0.000000,756.020000,-1.551600,-0.072800,100.000000,200.000000,50.000000
379.000000,101.955000,658.810000,690.300000,-0.870000,-4.680000,34.640000,-0.083000,0.000000,756.020000,-1.551600,-0.072800,100.000000,200.000000,50.000000
380.000000,101.930000,658.730000,690.260000,-0.870000,-4.980000,35.190000,-0.083000,0.000000,756.020000,-1.551600,-0.072800,100.000000,200.000000,50.000000
381.000000,101.904000,658.660000,690.220000,-0.870000,-5.140000,35.730000,-0.084000,0.000000,756.020000,-1.551600,-0.072800,100.000000,200.000000,50.000000
382.000000,101.878000,658.590000,690.190000,-0.870000,-5.020000,36.270000,-0.085000,0.000000,756.020000,-1.551600,-0.072800,100.000000,200.000000,50.000000
383.000000,101.853000,658.510000,690.150000,-0.870000,-4.730000,36.820000,-0.084000,0.000000,756.020000,-1.551600,-0.072800,100.000000,200.000000,50.000000
